var data_cumulative_2015 = {"type": "FeatureCollection","crs":                 {"type": "name", "properties": { "name":                 "urn:ogc:def:crs:OGC:1.3:CRS84" } },"features": [{"type": "Feature", "properties": {"name": "Beyla-Centre", "total": 1}, "geometry": {"type": "Point", "coordinates": [-8.67181015014648, 8.68817996978759]}}, {"type": "Feature", "properties": {"name": "Boola", "total": 0}, "geometry": {"type": "Point", "coordinates": [-8.69954967498779, 8.47879981994628]}}, {"type": "Feature", "properties": {"name": "Gbakedou", "total": 0}, "geometry": {"type": "Point", "coordinates": [-8.34370994567871, 8.72961044311523]}}, {"type": "Feature", "properties": {"name": "Gbessoba", "total": 0}, "geometry": {"type": "Point", "coordinates": [-7.94886016845703, 8.64076995849609]}}, {"type": "Feature", "properties": {"name": "Nionsomoridou", "total": 0}, "geometry": {"type": "Point", "coordinates": [-8.81645965576171, 8.71656990051269]}}, {"type": "Feature", "properties": {"name": "Boffa-Centre", "total": 2}, "geometry": {"type": "Point", "coordinates": [-14.1148996353149, 10.2122001647949]}}, {"type": "Feature", "properties": {"name": "Koba-Tatema", "total": 11}, "geometry": {"type": "Point", "coordinates": [-13.8629999160766, 9.97159957885742]}}, {"type": "Feature", "properties": {"name": "Tamita", "total": 3}, "geometry": {"type": "Point", "coordinates": [-13.9759998321533, 10.1284999847412]}}, {"type": "Feature", "properties": {"name": "Tougnifili", "total": 1}, "geometry": {"type": "Point", "coordinates": [-14.3633003234863, 10.3851995468139]}}, {"type": "Feature", "properties": {"name": "Kamsar", "total": 8}, "geometry": {"type": "Point", "coordinates": [-14.5403995513916, 10.6316003799438]}}, {"type": "Feature", "properties": {"name": "Dixinn", "total": 19}, "geometry": {"type": "Point", "coordinates": [-13.6552000045776, 9.55998039245605]}}, {"type": "Feature", "properties": {"name": "Kaloum", "total": 11}, "geometry": {"type": "Point", "coordinates": [-13.7091999053955, 9.51134014129638]}}, {"type": "Feature", "properties": {"name": "Matam", "total": 36}, "geometry": {"type": "Point", "coordinates": [-13.6471996307373, 9.5533800125122]}}, {"type": "Feature", "properties": {"name": "Matoto", "total": 83}, "geometry": {"type": "Point", "coordinates": [-13.5381002426147, 9.5919599533081]}}, {"type": "Feature", "properties": {"name": "Ratoma", "total": 32}, "geometry": {"type": "Point", "coordinates": [-13.5769996643066, 9.67807960510253]}}, {"type": "Feature", "properties": {"name": "Coyah-Centre", "total": 16}, "geometry": {"type": "Point", "coordinates": [-13.3902997970581, 9.70827960968017]}}, {"type": "Feature", "properties": {"name": "Kouriah", "total": 3}, "geometry": {"type": "Point", "coordinates": [-13.3155002593994, 9.84074974060058]}}, {"type": "Feature", "properties": {"name": "Maneah", "total": 26}, "geometry": {"type": "Point", "coordinates": [-13.4415998458862, 9.71681976318359]}}, {"type": "Feature", "properties": {"name": "Wonkifong", "total": 33}, "geometry": {"type": "Point", "coordinates": [-13.3088998794555, 9.67224025726318]}}, {"type": "Feature", "properties": {"name": "Dabola-Centre", "total": 0}, "geometry": {"type": "Point", "coordinates": [-11.0733003616333, 10.789400100708]}}, {"type": "Feature", "properties": {"name": "Dalaba-Centre", "total": 0}, "geometry": {"type": "Point", "coordinates": [-12.2672004699707, 10.7135000228881]}}, {"type": "Feature", "properties": {"name": "Koba", "total": 0}, "geometry": {"type": "Point", "coordinates": [-12.3840999603271, 10.6033000946044]}}, {"type": "Feature", "properties": {"name": "Dubreka-Centre", "total": 41}, "geometry": {"type": "Point", "coordinates": [-13.4743995666503, 9.78761959075927]}}, {"type": "Feature", "properties": {"name": "Falessade", "total": 5}, "geometry": {"type": "Point", "coordinates": [-13.2913999557495, 10.1183004379272]}}, {"type": "Feature", "properties": {"name": "Khorira", "total": 1}, "geometry": {"type": "Point", "coordinates": [-13.5115003585815, 9.96284008026123]}}, {"type": "Feature", "properties": {"name": "Tanene", "total": 22}, "geometry": {"type": "Point", "coordinates": [-13.7482995986938, 10.1284999847412]}}, {"type": "Feature", "properties": {"name": "Faranah-Centre", "total": 2}, "geometry": {"type": "Point", "coordinates": [-10.7208003997802, 10.0658998489379]}}, {"type": "Feature", "properties": {"name": "Marella", "total": 0}, "geometry": {"type": "Point", "coordinates": [-11.3440999984741, 10.1682996749877]}}, {"type": "Feature", "properties": {"name": "Tiro", "total": 3}, "geometry": {"type": "Point", "coordinates": [-10.5570001602172, 9.75387954711914]}}, {"type": "Feature", "properties": {"name": "Alassoya", "total": 49}, "geometry": {"type": "Point", "coordinates": [-13.0995998382568, 9.50049972534179]}}, {"type": "Feature", "properties": {"name": "Benty", "total": 4}, "geometry": {"type": "Point", "coordinates": [-13.1560001373291, 9.1003999710083]}}, {"type": "Feature", "properties": {"name": "Farmoriah", "total": 93}, "geometry": {"type": "Point", "coordinates": [-13.0199003219604, 9.25782012939453]}}, {"type": "Feature", "properties": {"name": "Forecariah-Centre", "total": 23}, "geometry": {"type": "Point", "coordinates": [-13.0908002853393, 9.42574977874755]}}, {"type": "Feature", "properties": {"name": "Kaback", "total": 15}, "geometry": {"type": "Point", "coordinates": [-13.3782997131347, 9.33561992645263]}}, {"type": "Feature", "properties": {"name": "Kakossa", "total": 8}, "geometry": {"type": "Point", "coordinates": [-13.4547996520996, 9.47272968292236]}}, {"type": "Feature", "properties": {"name": "Kallia", "total": 33}, "geometry": {"type": "Point", "coordinates": [-13.0160999298095, 9.38951015472412]}}, {"type": "Feature", "properties": {"name": "Maferinya", "total": 79}, "geometry": {"type": "Point", "coordinates": [-13.3072996139526, 9.48505973815917]}}, {"type": "Feature", "properties": {"name": "Moussayah", "total": 28}, "geometry": {"type": "Point", "coordinates": [-12.8259000778198, 9.46903038024902]}}, {"type": "Feature", "properties": {"name": "Sikhourou", "total": 15}, "geometry": {"type": "Point", "coordinates": [-12.7552995681762, 9.62534999847412]}}, {"type": "Feature", "properties": {"name": "Baguinet", "total": 7}, "geometry": {"type": "Point", "coordinates": [-13.4917001724243, 10.5542001724243]}}, {"type": "Feature", "properties": {"name": "Fria-Centre", "total": 3}, "geometry": {"type": "Point", "coordinates": [-13.6969003677368, 10.4725999832153]}}, {"type": "Feature", "properties": {"name": "Bolodou", "total": 0}, "geometry": {"type": "Point", "coordinates": [-10.3268003463745, 8.81931972503662]}}, {"type": "Feature", "properties": {"name": "Fangamadou", "total": 0}, "geometry": {"type": "Point", "coordinates": [-10.589599609375, 8.45827007293701]}}, {"type": "Feature", "properties": {"name": "Gueckedou-Centre", "total": 0}, "geometry": {"type": "Point", "coordinates": [-10.1162996292114, 8.57514953613281]}}, {"type": "Feature", "properties": {"name": "Guendembou", "total": 0}, "geometry": {"type": "Point", "coordinates": [-10.0502996444702, 8.77729988098144]}}, {"type": "Feature", "properties": {"name": "Koundou", "total": 0}, "geometry": {"type": "Point", "coordinates": [-10.4237003326416, 8.59910011291503]}}, {"type": "Feature", "properties": {"name": "Nongoa", "total": 0}, "geometry": {"type": "Point", "coordinates": [-10.3149003982543, 8.52439022064208]}}, {"type": "Feature", "properties": {"name": "Ouende Kenema", "total": 0}, "geometry": {"type": "Point", "coordinates": [-10.4959001541137, 8.408860206604]}}, {"type": "Feature", "properties": {"name": "Tekoulo", "total": 0}, "geometry": {"type": "Point", "coordinates": [-9.99036979675292, 8.55879974365234]}}, {"type": "Feature", "properties": {"name": "Termassadou", "total": 0}, "geometry": {"type": "Point", "coordinates": [-10.2339000701904, 8.65353965759277]}}, {"type": "Feature", "properties": {"name": "Bate-Nafadji", "total": 2}, "geometry": {"type": "Point", "coordinates": [-9.23978042602539, 10.7986001968383]}}, {"type": "Feature", "properties": {"name": "Kanfamoriyah", "total": 1}, "geometry": {"type": "Point", "coordinates": [-9.38134002685546, 10.5499000549316]}}, {"type": "Feature", "properties": {"name": "Kankan-Centre", "total": 0}, "geometry": {"type": "Point", "coordinates": [-9.26836013793945, 10.3668003082275]}}, {"type": "Feature", "properties": {"name": "Koumban", "total": 0}, "geometry": {"type": "Point", "coordinates": [-9.54428958892822, 10.2138004302978]}}, {"type": "Feature", "properties": {"name": "Mamouroudou", "total": 0}, "geometry": {"type": "Point", "coordinates": [-9.33535003662109, 9.57017040252685]}}, {"type": "Feature", "properties": {"name": "Moribayah", "total": 0}, "geometry": {"type": "Point", "coordinates": [-9.51509952545166, 9.88354015350341]}}, {"type": "Feature", "properties": {"name": "Banankoro", "total": 0}, "geometry": {"type": "Point", "coordinates": [-9.17002964019775, 9.17605972290039]}}, {"type": "Feature", "properties": {"name": "Damaro", "total": 0}, "geometry": {"type": "Point", "coordinates": [-8.80158042907714, 9.11198997497558]}}, {"type": "Feature", "properties": {"name": "Kerouane-Centre", "total": 0}, "geometry": {"type": "Point", "coordinates": [-9.03777980804443, 9.36583042144775]}}, {"type": "Feature", "properties": {"name": "Sibiribaro", "total": 0}, "geometry": {"type": "Point", "coordinates": [-9.28034973144531, 8.93218040466308]}}, {"type": "Feature", "properties": {"name": "Soromaya", "total": 0}, "geometry": {"type": "Point", "coordinates": [-9.50514984130859, 9.21401023864746]}}, {"type": "Feature", "properties": {"name": "Damakania", "total": 0}, "geometry": {"type": "Point", "coordinates": [-12.9507999420166, 10.0176000595092]}}, {"type": "Feature", "properties": {"name": "Friguiagbe", "total": 6}, "geometry": {"type": "Point", "coordinates": [-12.9547996520996, 9.85151004791259]}}, {"type": "Feature", "properties": {"name": "Kindia-Centre", "total": 13}, "geometry": {"type": "Point", "coordinates": [-12.7691001892089, 9.99116039276123]}}, {"type": "Feature", "properties": {"name": "Madina Oula", "total": 0}, "geometry": {"type": "Point", "coordinates": [-12.2648000717163, 10.0416002273559]}}, {"type": "Feature", "properties": {"name": "Mambia", "total": 4}, "geometry": {"type": "Point", "coordinates": [-13.0960998535156, 9.77678966522216]}}, {"type": "Feature", "properties": {"name": "Samaya", "total": 0}, "geometry": {"type": "Point", "coordinates": [-13.1077003479003, 10.1003999710083]}}, {"type": "Feature", "properties": {"name": "Fermessadou-Pombo", "total": 1}, "geometry": {"type": "Point", "coordinates": [-10.2040996551513, 9.13451957702636]}}, {"type": "Feature", "properties": {"name": "Gbangbadou", "total": 0}, "geometry": {"type": "Point", "coordinates": [-10.0001001358032, 9.29703044891357]}}, {"type": "Feature", "properties": {"name": "Kissidougou-Centre", "total": 2}, "geometry": {"type": "Point", "coordinates": [-10.1408996582031, 9.23272037506103]}}, {"type": "Feature", "properties": {"name": "Sangardo", "total": 1}, "geometry": {"type": "Point", "coordinates": [-10.2441997528076, 9.39305973052978]}}, {"type": "Feature", "properties": {"name": "Babila", "total": 0}, "geometry": {"type": "Point", "coordinates": [-9.76663017272949, 10.6236000061035]}}, {"type": "Feature", "properties": {"name": "Sanguiana", "total": 0}, "geometry": {"type": "Point", "coordinates": [-10.1583995819091, 10.7370996475219]}}, {"type": "Feature", "properties": {"name": "Bossou", "total": 1}, "geometry": {"type": "Point", "coordinates": [-8.48915004730224, 7.64642000198364]}}, {"type": "Feature", "properties": {"name": "Gama Berema", "total": 0}, "geometry": {"type": "Point", "coordinates": [-8.29837989807128, 7.8682198524475]}}, {"type": "Feature", "properties": {"name": "Gueassou", "total": 5}, "geometry": {"type": "Point", "coordinates": [-8.18187999725341, 8.0850601196289]}}, {"type": "Feature", "properties": {"name": "Kokota", "total": 4}, "geometry": {"type": "Point", "coordinates": [-8.47224044799804, 7.90183019638061]}}, {"type": "Feature", "properties": {"name": "Laine", "total": 17}, "geometry": {"type": "Point", "coordinates": [-8.46840953826904, 8.02900028228759]}}, {"type": "Feature", "properties": {"name": "Lola-Centre", "total": 1}, "geometry": {"type": "Point", "coordinates": [-8.47686004638671, 7.79206991195678]}}, {"type": "Feature", "properties": {"name": "Nzoo", "total": 0}, "geometry": {"type": "Point", "coordinates": [-8.29697036743164, 7.66453981399536]}}, {"type": "Feature", "properties": {"name": "Balizia", "total": 0}, "geometry": {"type": "Point", "coordinates": [-9.59374046325683, 8.61559009552001]}}, {"type": "Feature", "properties": {"name": "Binikala", "total": 0}, "geometry": {"type": "Point", "coordinates": [-9.51867961883544, 8.7916202545166]}}, {"type": "Feature", "properties": {"name": "Bofossou", "total": 0}, "geometry": {"type": "Point", "coordinates": [-9.73606967926025, 8.68013954162597]}}, {"type": "Feature", "properties": {"name": "Daro", "total": 0}, "geometry": {"type": "Point", "coordinates": [-9.6028299331665, 8.49269008636474]}}, {"type": "Feature", "properties": {"name": "Fassankoni", "total": 0}, "geometry": {"type": "Point", "coordinates": [-9.30395030975341, 8.05543041229248]}}, {"type": "Feature", "properties": {"name": "Kouankan", "total": 1}, "geometry": {"type": "Point", "coordinates": [-9.02842998504638, 8.50045013427734]}}, {"type": "Feature", "properties": {"name": "Koyamah", "total": 0}, "geometry": {"type": "Point", "coordinates": [-9.31645011901855, 7.88926982879638]}}, {"type": "Feature", "properties": {"name": "Macenta-Centre", "total": 2}, "geometry": {"type": "Point", "coordinates": [-9.46218013763427, 8.53787040710449]}}, {"type": "Feature", "properties": {"name": "Nzebela", "total": 0}, "geometry": {"type": "Point", "coordinates": [-9.08096981048583, 8.14311981201171]}}, {"type": "Feature", "properties": {"name": "Ouremai", "total": 0}, "geometry": {"type": "Point", "coordinates": [-9.43101024627685, 8.29613971710205]}}, {"type": "Feature", "properties": {"name": "Panziazou", "total": 0}, "geometry": {"type": "Point", "coordinates": [-9.84276008605957, 8.59078979492187]}}, {"type": "Feature", "properties": {"name": "Sengbedou", "total": 0}, "geometry": {"type": "Point", "coordinates": [-9.31054973602294, 8.52313041687011]}}, {"type": "Feature", "properties": {"name": "Seredou", "total": 0}, "geometry": {"type": "Point", "coordinates": [-9.2336196899414, 8.27509021759033]}}, {"type": "Feature", "properties": {"name": "Vasseredou", "total": 0}, "geometry": {"type": "Point", "coordinates": [-9.20989990234375, 8.70112037658691]}}, {"type": "Feature", "properties": {"name": "Watanka", "total": 0}, "geometry": {"type": "Point", "coordinates": [-9.81544017791748, 8.77976989746093]}}, {"type": "Feature", "properties": {"name": "Dougountouny", "total": 5}, "geometry": {"type": "Point", "coordinates": [-12.5594997406005, 11.8543996810913]}}, {"type": "Feature", "properties": {"name": "Gouecke", "total": 0}, "geometry": {"type": "Point", "coordinates": [-8.77705001831054, 7.99756002426147]}}, {"type": "Feature", "properties": {"name": "Koropara", "total": 0}, "geometry": {"type": "Point", "coordinates": [-8.67329978942871, 8.27781963348388]}}, {"type": "Feature", "properties": {"name": "Koule", "total": 2}, "geometry": {"type": "Point", "coordinates": [-8.97581005096435, 8.04086971282958]}}, {"type": "Feature", "properties": {"name": "N'Zerekore-Centre", "total": 2}, "geometry": {"type": "Point", "coordinates": [-8.83631992340087, 7.73796987533569]}}, {"type": "Feature", "properties": {"name": "Samoe", "total": 0}, "geometry": {"type": "Point", "coordinates": [-8.86728954315185, 7.85095977783203]}}, {"type": "Feature", "properties": {"name": "Soulouta", "total": 0}, "geometry": {"type": "Point", "coordinates": [-8.63519954681396, 7.97293996810913]}}, {"type": "Feature", "properties": {"name": "Womey", "total": 0}, "geometry": {"type": "Point", "coordinates": [-8.66429042816162, 8.11946964263916]}}, {"type": "Feature", "properties": {"name": "Yalenzou", "total": 0}, "geometry": {"type": "Point", "coordinates": [-8.67290019989013, 7.76349020004272]}}, {"type": "Feature", "properties": {"name": "Pita-Centre", "total": 0}, "geometry": {"type": "Point", "coordinates": [-12.4170999526977, 11.0640001296997]}}, {"type": "Feature", "properties": {"name": "Doko", "total": 0}, "geometry": {"type": "Point", "coordinates": [-8.98760986328125, 11.7491998672485]}}, {"type": "Feature", "properties": {"name": "Niandankoro", "total": 0}, "geometry": {"type": "Point", "coordinates": [-9.33763980865478, 11.1291999816894]}}, {"type": "Feature", "properties": {"name": "Siguiri-Centre", "total": 3}, "geometry": {"type": "Point", "coordinates": [-9.18085002899169, 11.4483995437622]}}, {"type": "Feature", "properties": {"name": "Siguirini", "total": 0}, "geometry": {"type": "Point", "coordinates": [-10.0684995651245, 11.8507995605468]}}, {"type": "Feature", "properties": {"name": "Sarekali", "total": 0}, "geometry": {"type": "Point", "coordinates": [-13.0052003860473, 10.9896001815795]}}, {"type": "Feature", "properties": {"name": "Sinta", "total": 0}, "geometry": {"type": "Point", "coordinates": [-13.0479001998901, 10.6808004379272]}}, {"type": "Feature", "properties": {"name": "Telimele-Centre", "total": 0}, "geometry": {"type": "Point", "coordinates": [-13.077199935913, 10.8737001419067]}}, {"type": "Feature", "properties": {"name": "Fatako", "total": 2}, "geometry": {"type": "Point", "coordinates": [-11.8747997283935, 11.2321996688842]}}, {"type": "Feature", "properties": {"name": "Banie", "total": 0}, "geometry": {"type": "Point", "coordinates": [-9.38109016418457, 7.47800016403198]}}, {"type": "Feature", "properties": {"name": "Yomou-Centre", "total": 0}, "geometry": {"type": "Point", "coordinates": [-9.29333019256591, 7.58509016036987]}}]};